name;location;longitude;latitude
Zespół Szkół im. Jana Pawła II;Łochowo;53.12154;17.8380964
Gimnazjum im. Jana Pawła II - zlikwidowane 2019;Mrocza;53.24172;17.5986372
Szkoła Podstawowa nr 3 im. Jana Pawła II w Zespole Szkolno-Przedszkolnym nr 2;Rypin;53.06296;19.4163248
Szkoła Podstawowa nr 13 im. Jana Pawła II;Toruń;53.01078522816698;18.58709506774655
Publiczna Szkoła Podstawowa im. Jana Pawła II;Wielki Komorsk;53.58076;18.6711051
Szkoła Podstawowa nr 2 im. Jana Pawła II;Koronowo;53.31208;17.9479054
Szkoła Podstawowa nr 5 im. Papieża Jana Pawła II;Chełmża;53.17928;18.5933383
Szkoła Podstawowa im. Jana Pawła II w Gostycynie;Gostycyn;53.48956;17.8052408
Szkoła Podstawowa im. Jana Pawła II w Lubaniu;Lubanie;52.74898;18.9189597
Szkoła Podstawowa im. Jana Pawła II;Obrowo;52.970042499723846;18.876354626191592
Szkoła Podstawowa im. Jana Pawła II;Więsławice;52.49446;19.1870912
Gimnazjum im. Jana Pawła II i Szkoła Podstawowa im. Jana Pawła II w Zespole Szkół nr 2;Grębocin;53.0529;18.7222912
Gimnazjum im. Jana Pawła II - zlikwidowane w 2019 r.;Korytowo;53.39392611491299;18.198594757646205
Szkoła Podstawowa im. Jana Pawła II;Gruczno;53.34804;18.3145164
Gimnazjum im. Jana Pawła II - zlikwidowane 2019;Gruczno;53.34804;18.3145164
Zespół Szkół im. Jana Pawła II;Paterek;53.11492;17.6032852
Gimnazjum im. Jana Pawła II - zlikwidowane 2019;Choceń;52.48556;19.0220872
Szkoła Podstawowa nr 5 im. Jana Pawła II;Lipno;52.8408;19.1782891
Szkoła Podstawowa im. Jana Pawła II;Mała Nieszawka;52.990255240471846;18.548030966626182
Gimnazjum im. Jana Pawła II - zlikwidowane 2019;Osiek nad Notecią;53.11687243126874;17.29286294661275
Szkoła Podstawowa im. św. Jana Pawła II w Brąchnowie;Brąchnowo;53.13592;18.5387533
Zespół Szkół Ponadgimnazjalnych nr 1 im. Jana Pawła II;Inowrocław;52.75386;18.2569102
Szkoła Podstawowa im. Jana Pawła II;Boguszewo;53.42373177332867;19.007507427806445
Zespół Szkół Ponadgimnazjalnych im. Jana Pawła II;Kościelec;52.7924989205197;18.161686355680224
Szkoła Podstawowa im. Jana Pawła II;Bobrowo;53.28862718424644;19.27644016734359
Gimnazjum im. Jana Pawła II - zlikwidowane w 2019 r.;Żalinowo;52.75408;18.1910248
Szkoła Podstawowa im. Jana Pawła II w Sztynwagu;Sztynwag;53.40838;18.6945194
Szkoła Podstawowa nr 16 im. Jana Pawła II;Inowrocław;52.80066;18.2799469
Szkoła Podstawowa nr 2 im. Jana Pawła II;Wąbrzeźno;53.2766;18.9466444
Publiczne Gimnazjum nr 12 im. Karola Wojtyły - zlikwidowane 2019;Włocławek;52.61086;19.025457
Szkoła Podstawowa im. Jana Pawła II;Lniano;53.52868;18.2180704
Szkoła Podstawowa im. Jana Pawła II;Stodoły;52.64892274438154;18.226742906152868
Gimnazjum nr 14 im. Jana Pawła II - zlikwidowane w 2019 r.;Włocławek;52.65368;19.0796643
Szkoła Podstawowa Nr 4 z Oddziałami Dwujęzycznymi  im. Jana Pawła II;Toruń;53.02894134456804;18.596299384190004
Publiczna Szkoła Podstawowa im. Jana Pawła II Stowarzyszenia Przyjaciół Szkół Katolickich;Nowe;53.68378906538146;18.67006490875614
Szkoła Publiczna Gimnazjum im. Jana Pawła II - zlikwidowane w 2019 r.;Pluskowęsy;53.17698;18.6775833
Gimnazjum im. Jana Pawła II - zlikwidowane 2019;Ryńsk;53.23242;18.821526
III Liceum Ogólnokształcące im. Jana Pawła II;Grudziądz;53.4964;18.7574417
Zespół Szkół nr 1 im. Karola Wojtyły - Jana Pawła II;Brodnica;53.24804;19.4143784
Szkoła Podstawowa im. Jana Pawła II w Kowalkach;Kowalki;53.04294;19.3997372
Gimnazjum im. Jana Pawła II - zlikwidowane 2019;Radzyń Chełmiński;53.38222;18.9337752
Publiczne Gimnazjum im. Jana Pawła II Zlikwidowana 2019;Krojczyn;52.6846;19.1982464
Zespół Szkół im. Jana Pawła II;Wichowo;52.75337122585859;19.125103566935156
Szkoła Podstawowa im. Jana Pawła II;Czarne;52.7872567;19.2567638
Szkoła Podstawowa nr 6 im. Jana Pawła II, Branżowa Szkoła I Stopnia nr 2 im. Jana Pawła II, Szkoła Przysposabiając do Pracy nr 1 im. Jana Pawła II w Zespole Szkół Specjalnych nr 1;Świecie;53.40716;18.4231924
Szkoła Podstawowa z Oddziałami Integracyjnymi im. Jana Pawła II;Gościeszyn;52.65726;17.7264863
Szkoła Podstawowa im. Jana Pawła II;Maksymilianowo;53.21536;18.0399067
V Liceum Ogólnokształcące im. Jana Pawła II;Toruń;53.01552;18.5805853
Szkoła Podstawowa Stowarzyszenia Przyjaciół Szkół Katolickich im. Jana Pawła II;Modzerowo;52.63192;19.1847091
Klasy Publicznego Gimnazjum im. Jana Pawła II w Szkole Podstawowej z Oddziałami Integracyjnymi im. Jana Pawła II - zlikwidowana 2019;Gościeszyn;52.65726;17.7264863
Publiczna Szkoła Podstawowa im. Jana Pawła II;Legbąd;53.70938;17.9428797
Szkoła Podstawowa nr 4 im. Jana Pawła II w Zespole Szkół Specjalnych Nr 3;Aleksandrów Kujawski;52.87356;18.6919921
Gimnazjum nr 3 im. Jana Pawła II - zlikwidowane 2019;Bachorce;52.66912;18.4215366
Publiczne Gimnazjum im. Świętego Jana Pawła II w Zespole Szkół - zlikwidowana 2019;Raciążek;52.85634;18.8108356
Niepubliczna Szkoła Podstawowa im. św. Jan Pawła II w Pocierzynie;Pocierzyn;52.6885;18.6905686
